ecoplan_callback({"type":"FeatureCollection","features":[{"type":"Feature","geometry":{"type":"Point","coordinates":[3.7386417,51.042366]},"properties":{"NAAM":"Roomer","STRAAT":"Krevelstraat","NUMMER":"3","POSTCODE":"9000","BUS":"","GEMEENTE":"Gent","WEBADRES":"www.roomer.be","telefoon":"0472\/225455","CATEGORIE":"eet-en-drankgelegenheden","LABEL":"lokaal geproduceerd","opmerkingen":"Gentse vlierbloesemlikeur"}},{"type":"Feature","geometry":{"type":"Point","coordinates":[3.7217124,51.056458]},"properties":{"NAAM":"Simon Levelt","STRAAT":"Kleine Vismarkt","NUMMER":"5","POSTCODE":"9000","BUS":"","GEMEENTE":"Gent","WEBADRES":"www.simonlevelt.nl\/Webshop","telefoon":"09\/2342059","CATEGORIE":"eet-en-drankgelegenheden","LABEL":"fairtrade, bio","opmerkingen":"koffiehuis"}},{"type":"Feature","geometry":{"type":"Point","coordinates":[3.7249215,51.059494]},"properties":{"NAAM":"Les Tr\u00e9sors","STRAAT":"Oudburg","NUMMER":"55","POSTCODE":"9000","BUS":"","GEMEENTE":"Gent","WEBADRES":"www.lestresors.be","telefoon":"0477\/933447","CATEGORIE":"eet-en-drankgelegenheden","LABEL":"bio","opmerkingen":"natuurlijke wijnen"}},{"type":"Feature","geometry":{"type":"Point","coordinates":[3.726935,51.049026]},"properties":{"NAAM":"Or espresso bar","STRAAT":"Walpoortstraat","NUMMER":"26","POSTCODE":"9000","BUS":"","GEMEENTE":"Gent","WEBADRES":"www.orcoffee.be","telefoon":"09\/2236500","CATEGORIE":"ontbijt-en-koffie","LABEL":"ecovriendelijk","opmerkingen":""}},{"type":"Feature","geometry":{"type":"Point","coordinates":[3.7224703,51.050014]},"properties":{"NAAM":"Paard van Troje","STRAAT":"Kouter","NUMMER":"113","POSTCODE":"9000","BUS":"","GEMEENTE":"Gent","WEBADRES":"www.paardvantroye.be","telefoon":"09\/3300883","CATEGORIE":"ontbijt-en-koffie","LABEL":"bio","opmerkingen":"boekenwinkel\/koffiehuis"}},{"type":"Feature","geometry":{"type":"Point","coordinates":[3.7024767,51.05855]},"properties":{"NAAM":"Trafiek","STRAAT":"Haspelstraat","NUMMER":"37","POSTCODE":"9000","BUS":"","GEMEENTE":"Gent","WEBADRES":"http:\/\/trafiek.blogspot.com","telefoon":"0488\/261888","CATEGORIE":"ontbijt-en-koffie","LABEL":"fairtrade, bio, vegetarisch","opmerkingen":""}},{"type":"Feature","geometry":{"type":"Point","coordinates":[3.7247355,51.057423]},"properties":{"NAAM":"Barista","STRAAT":"Meerseniersstraat","NUMMER":"16","POSTCODE":"9000","BUS":"","GEMEENTE":"Gent","WEBADRES":"www.mybarista.be","telefoon":"0470\/523654","CATEGORIE":"ontbijt-en-koffie","LABEL":"bio","opmerkingen":""}},{"type":"Feature","geometry":{"type":"Point","coordinates":[3.7304316,51.050095]},"properties":{"NAAM":"Barista","STRAAT":"Hippoliet Lippensplein","NUMMER":"25","POSTCODE":"9000","BUS":"","GEMEENTE":"Gent","WEBADRES":"www.mybarista.be","telefoon":"0488\/469830","CATEGORIE":"ontbijt-en-koffie","LABEL":"bio","opmerkingen":""}},{"type":"Feature","geometry":{"type":"Point","coordinates":[3.7248864,51.05973]},"properties":{"NAAM":"Simon Says","STRAAT":"Sluizeken","NUMMER":"8","POSTCODE":"9000","BUS":"","GEMEENTE":"Gent","WEBADRES":"www.simon-says.be","telefoon":"09\/2330343","CATEGORIE":"ontbijt-en-koffie","LABEL":"fairtrade, bio","opmerkingen":""}},{"type":"Feature","geometry":{"type":"Point","coordinates":[3.7260685,51.075603]},"properties":{"NAAM":"De Ingang","STRAAT":"Wiedauwkaai","NUMMER":"52","POSTCODE":"9000","BUS":"","GEMEENTE":"Gent","WEBADRES":"www.de-ingang.be","telefoon":"09\/2208296","CATEGORIE":"eet-en-drankgelegenheden","LABEL":"fairtrade","opmerkingen":""}},{"type":"Feature","geometry":{"type":"Point","coordinates":[3.7117698,51.063747]},"properties":{"NAAM":"Eetcafe Toreke","STRAAT":"Vlotstraat","NUMMER":"22","POSTCODE":"9000","BUS":"","GEMEENTE":"Gent","WEBADRES":"www.eetcafetoreke.be","telefoon":"09\/2238783","CATEGORIE":"sociale-restaurants","LABEL":"fairtrade, bio, lokaal geproduceerd, sociale tewerkstelling","opmerkingen":""}},{"type":"Feature","geometry":{"type":"Point","coordinates":[3.7211592,51.053936]},"properties":{"NAAM":"Exki","STRAAT":"Sint-Michielshelling","NUMMER":"2","POSTCODE":"9000","BUS":"","GEMEENTE":"Gent","WEBADRES":"www.exki.be","telefoon":"09\/2690500","CATEGORIE":"eet-en-drankgelegenheden","LABEL":"fairtrade, bio","opmerkingen":""}},{"type":"Feature","geometry":{"type":"Point","coordinates":[3.72734,51.047756]},"properties":{"NAAM":"Vooruit","STRAAT":"Sint-Pietersnieuwstraat","NUMMER":"23","POSTCODE":"9000","BUS":"","GEMEENTE":"Gent","WEBADRES":"www.vooruit.be","telefoon":"09\/2672828","CATEGORIE":"eet-en-drankgelegenheden","LABEL":"fairtrade, bio","opmerkingen":""}},{"type":"Feature","geometry":{"type":"Point","coordinates":[3.7169569,51.049946]},"properties":{"NAAM":"De Loge","STRAAT":"Annonciadenstraat","NUMMER":"5","POSTCODE":"9000","BUS":"","GEMEENTE":"Gent","WEBADRES":"www.deloge.be","telefoon":"09\/2253438","CATEGORIE":"eet-en-drankgelegenheden","LABEL":"fairtrade","opmerkingen":""}},{"type":"Feature","geometry":{"type":"Point","coordinates":[3.7265315,51.040604]},"properties":{"NAAM":"Molotov","STRAAT":"Voetweg","NUMMER":"48","POSTCODE":"9000","BUS":"","GEMEENTE":"Gent","WEBADRES":"http:\/\/www.facebook.com\/molotov.cafe","telefoon":"0488\/355847","CATEGORIE":"eet-en-drankgelegenheden","LABEL":"fairtrade","opmerkingen":""}},{"type":"Feature","geometry":{"type":"Point","coordinates":[3.727617,51.06097]},"properties":{"NAAM":"Multatuli","STRAAT":"Huidevetterskaai","NUMMER":"40","POSTCODE":"9000","BUS":"","GEMEENTE":"Gent","WEBADRES":"www.eetkaffee-multatuli.be","telefoon":"09\/2230711","CATEGORIE":"eet-en-drankgelegenheden","LABEL":"fairtrade, bio","opmerkingen":""}},{"type":"Feature","geometry":{"type":"Point","coordinates":[3.724937,51.059593]},"properties":{"NAAM":"Patiron","STRAAT":"Sluizeken","NUMMER":"30","POSTCODE":"9000","BUS":"","GEMEENTE":"Gent","WEBADRES":"www.patiron.be","telefoon":"09\/2334587","CATEGORIE":"eet-en-drankgelegenheden","LABEL":"bio","opmerkingen":""}},{"type":"Feature","geometry":{"type":"Point","coordinates":[3.7203152,51.051712]},"properties":{"NAAM":"Eat Love","STRAAT":"Ajuinlei ","NUMMER":"10","POSTCODE":"9000","BUS":"A","GEMEENTE":"Gent","WEBADRES":"www.eatlove.be","telefoon":"0479\/879387","CATEGORIE":"eet-en-drankgelegenheden","LABEL":"bio","opmerkingen":""}},{"type":"Feature","geometry":{"type":"Point","coordinates":[3.7256584,51.056087]},"properties":{"NAAM":"Marco Polo Trattoria","STRAAT":"Serpentstraat","NUMMER":"11","POSTCODE":"9000","BUS":"","GEMEENTE":"Gent","WEBADRES":"www.pocketresto.be\/gent\/marco-polo-trattoria","telefoon":"09\/2250420","CATEGORIE":"eet-en-drankgelegenheden","LABEL":"bio","opmerkingen":""}},{"type":"Feature","geometry":{"type":"Point","coordinates":[3.6967795,51.056385]},"properties":{"NAAM":"Bio-Planet Eethoek","STRAAT":"Drongensesteenweg","NUMMER":"134","POSTCODE":"9000","BUS":"","GEMEENTE":"Gent","WEBADRES":"www.bioplanet.be","telefoon":"09\/2170458","CATEGORIE":"eet-en-drankgelegenheden","LABEL":"fairtrade, bio","opmerkingen":""}},{"type":"Feature","geometry":{"type":"Point","coordinates":[3.7257621,51.058052]},"properties":{"NAAM":"Le Baccanti","STRAAT":"Waaistraat","NUMMER":"14","POSTCODE":"9000","BUS":"","GEMEENTE":"Gent","WEBADRES":"www.lebaccanti.be","telefoon":"09\/2242055","CATEGORIE":"eet-en-drankgelegenheden","LABEL":"bio","opmerkingen":""}},{"type":"Feature","geometry":{"type":"Point","coordinates":[3.7228277,51.060715]},"properties":{"NAAM":"De Stokerij","STRAAT":"Tichelrei","NUMMER":"2","POSTCODE":"9000","BUS":"A","GEMEENTE":"Gent","WEBADRES":"www.destokerij-gent.be","telefoon":"09\/2799585","CATEGORIE":"eet-en-drankgelegenheden","LABEL":"fairtrade","opmerkingen":""}},{"type":"Feature","geometry":{"type":"Point","coordinates":[3.7213354,51.05876]},"properties":{"NAAM":"J.E.F.","STRAAT":"Lange Steenstraat","NUMMER":"10","POSTCODE":"9000","BUS":"","GEMEENTE":"Gent","WEBADRES":"www.j-e-f.be","telefoon":"09\/3368058","CATEGORIE":"eet-en-drankgelegenheden","LABEL":"bio","opmerkingen":""}},{"type":"Feature","geometry":{"type":"Point","coordinates":[3.7321324,51.049683]},"properties":{"NAAM":"De Vitrine","STRAAT":"Brabantdam","NUMMER":"134","POSTCODE":"9000","BUS":"","GEMEENTE":"Gent","WEBADRES":"www.de-vitrine.be","telefoon":"09\/3362808","CATEGORIE":"eet-en-drankgelegenheden","LABEL":"bio","opmerkingen":""}},{"type":"Feature","geometry":{"type":"Point","coordinates":[3.680596,51.067455]},"properties":{"NAAM":"Natuur -en Milieucentrum De Bourgoyen","STRAAT":"Driepikkelstraat","NUMMER":"32","POSTCODE":"9000","BUS":"","GEMEENTE":"Gent","WEBADRES":"www.natuurpuntgent.be\/bezoekerscentrum-bourgoyen","telefoon":"09\/2164478","CATEGORIE":"infopunten","LABEL":"ecovriendelijk","opmerkingen":""}},{"type":"Feature","geometry":{"type":"Point","coordinates":[3.7112246,51.050655]},"properties":{"NAAM":"De Frietketel","STRAAT":"Papegaaistraat","NUMMER":"89","POSTCODE":"9000","BUS":"","GEMEENTE":"Gent","WEBADRES":"www.vindeenfrituur.be","telefoon":"09\/3294022","CATEGORIE":"frituur","LABEL":"","opmerkingen":""}},{"type":"Feature","geometry":{"type":"Point","coordinates":[3.7283113,51.04126]},"properties":{"NAAM":"Frietcultuur","STRAAT":"Kantienberg","NUMMER":"28","POSTCODE":"9000","BUS":"","GEMEENTE":"Gent","WEBADRES":"www.vindeenfrituur.be","telefoon":"0475\/981487","CATEGORIE":"frituur","LABEL":"","opmerkingen":""}},{"type":"Feature","geometry":{"type":"Point","coordinates":[3.7165043,51.05004]},"properties":{"NAAM":"Papegaai","STRAAT":"Annonciadenstraat","NUMMER":"17","POSTCODE":"9000","BUS":"","GEMEENTE":"Gent","WEBADRES":"www.vindeenfrituur.be","telefoon":"09\/3290081","CATEGORIE":"frituur","LABEL":"","opmerkingen":""}},{"type":"Feature","geometry":{"type":"Point","coordinates":[3.7141771,51.05463]},"properties":{"NAAM":"Fin de faim","STRAAT":"Hoogstraat","NUMMER":"73","POSTCODE":"9000","BUS":"","GEMEENTE":"Gent","WEBADRES":"www.findefaim.be","telefoon":"09\/2251025","CATEGORIE":"ontbijt-en-koffie","LABEL":"fairtrade, bio","opmerkingen":""}},{"type":"Feature","geometry":{"type":"Point","coordinates":[3.718701,51.056526]},"properties":{"NAAM":"Le Jardin Boh__mien ","STRAAT":"Burgstraat","NUMMER":"19","POSTCODE":"9000","BUS":"","GEMEENTE":"Gent","WEBADRES":"www.lejardinbohemien.be","telefoon":"09\/3283948","CATEGORIE":"ontbijt-en-koffie","LABEL":"bio","opmerkingen":""}},{"type":"Feature","geometry":{"type":"Point","coordinates":[3.7254734,51.05154]},"properties":{"NAAM":"Le Pain Quotidien","STRAAT":"Kalandeberg","NUMMER":"10","POSTCODE":"9000","BUS":"","GEMEENTE":"Gent","WEBADRES":"www.lepainquotidien.be","telefoon":"09\/2241879","CATEGORIE":"ontbijt-en-koffie","LABEL":"bio","opmerkingen":""}},{"type":"Feature","geometry":{"type":"Point","coordinates":[3.7202618,51.055714]},"properties":{"NAAM":"Nieuwe Brooderie","STRAAT":"Jan Breydelstraat","NUMMER":"8","POSTCODE":"9000","BUS":"","GEMEENTE":"Gent","WEBADRES":"www.brooderie.be","telefoon":"09\/2250623","CATEGORIE":"ontbijt-en-koffie","LABEL":"bio","opmerkingen":""}},{"type":"Feature","geometry":{"type":"Point","coordinates":[3.7628329,51.068455]},"properties":{"NAAM":"Aan de rand","STRAAT":"Antwerpsesteenweg","NUMMER":"573","POSTCODE":"9040","BUS":"","GEMEENTE":"Sint-Amandsberg","WEBADRES":"www.aanderand.be","telefoon":"09\/2661810","CATEGORIE":"sociale-restaurants","LABEL":"fairtrade, bio, sociale tewerkstelling","opmerkingen":""}},{"type":"Feature","geometry":{"type":"Point","coordinates":[3.6818998,51.133656]},"properties":{"NAAM":"Het restaurant","STRAAT":"Vlaamse Kaai","NUMMER":"10","POSTCODE":"9000","BUS":"","GEMEENTE":"Gent","WEBADRES":"www.ateljeevzw.be","telefoon":"09\/2240715","CATEGORIE":"sociale-restaurants","LABEL":"sociale tewerkstelling","opmerkingen":""}},{"type":"Feature","geometry":{"type":"Point","coordinates":[3.6914487,51.068394]},"properties":{"NAAM":"het restaurant","STRAAT":"Kempstraat","NUMMER":"150","POSTCODE":"9000","BUS":"","GEMEENTE":"Gent","WEBADRES":"www.ateljeevzw.be","telefoon":"09\/2240715","CATEGORIE":"sociale-restaurants","LABEL":"sociale tewerkstelling","opmerkingen":""}},{"type":"Feature","geometry":{"type":"Point","coordinates":[3.7170212,51.05162]},"properties":{"NAAM":"Parnassus","STRAAT":"Oude Houtlei","NUMMER":"122","POSTCODE":"9000","BUS":"","GEMEENTE":"Gent","WEBADRES":"www.parnassus.be","telefoon":"09\/2692551","CATEGORIE":"sociale-restaurants","LABEL":"sociale tewerkstelling","opmerkingen":""}},{"type":"Feature","geometry":{"type":"Point","coordinates":[3.734386,51.06125]},"properties":{"NAAM":"Wereldrestaurant De Centrale","STRAAT":"Kraankindersstraat","NUMMER":"2","POSTCODE":"9000","BUS":"","GEMEENTE":"Gent","WEBADRES":"www.decentrale.be","telefoon":"09\/2661321","CATEGORIE":"sociale-restaurants","LABEL":"fairtrade, bio, sociale tewerkstelling","opmerkingen":""}},{"type":"Feature","geometry":{"type":"Point","coordinates":[3.718664,51.023045]},"properties":{"NAAM":"wijkresto en co","STRAAT":"Rerum Novarumplein","NUMMER":"180","POSTCODE":"9000","BUS":"C","GEMEENTE":"Gent","WEBADRES":"www.wijkrestocovzw.be","telefoon":"09\/2669032","CATEGORIE":"sociale-restaurants","LABEL":"fairtrade, sociale tewerkstelling","opmerkingen":""}},{"type":"Feature","geometry":{"type":"Point","coordinates":[3.7275977,51.08349]},"properties":{"NAAM":"t Oud Postje","STRAAT":"Meulesteedsesteenweg","NUMMER":"455","POSTCODE":"9000","BUS":"A","GEMEENTE":"Gent","WEBADRES":"www.wijkresto.buurtdienstengentnoord.be","telefoon":"09\/2599120","CATEGORIE":"sociale-restaurants","LABEL":"sociale tewerkstelling","opmerkingen":""}},{"type":"Feature","geometry":{"type":"Point","coordinates":[3.728174,51.038654]},"properties":{"NAAM":"De Appelier","STRAAT":"Citadellaan","NUMMER":"47","POSTCODE":"9000","BUS":"","GEMEENTE":"Gent","WEBADRES":"www.deappelier.be","telefoon":"09\/2216733","CATEGORIE":"vegetarische-restaurants","LABEL":"bio, vegatarisch","opmerkingen":""}},{"type":"Feature","geometry":{"type":"Point","coordinates":[3.7046225,51.030483]},"properties":{"NAAM":"De Groene Waaier","STRAAT":"Schoonmeersstraat","NUMMER":"25","POSTCODE":"9000","BUS":"","GEMEENTE":"Gent","WEBADRES":"www.degroenewaaier.be","telefoon":"09\/3293980","CATEGORIE":"vegetarische-restaurants","LABEL":"bio, vegetarisch","opmerkingen":""}},{"type":"Feature","geometry":{"type":"Point","coordinates":[3.7271225,51.054947]},"properties":{"NAAM":"De Warempel","STRAAT":"Zandberg","NUMMER":"8","POSTCODE":"9000","BUS":"","GEMEENTE":"Gent","WEBADRES":"www.warempel.be","telefoon":"09\/2243062","CATEGORIE":"vegetarische-restaurants","LABEL":"bio, vegetarisch","opmerkingen":""}},{"type":"Feature","geometry":{"type":"Point","coordinates":[3.721682,51.047623]},"properties":{"NAAM":"Green Way Foods","STRAAT":"Nederkouter","NUMMER":"42","POSTCODE":"9000","BUS":"","GEMEENTE":"Gent","WEBADRES":"www.greenway.be","telefoon":"09\/2690769","CATEGORIE":"vegetarische-restaurants","LABEL":"fairtrade, vegetarisch","opmerkingen":""}},{"type":"Feature","geometry":{"type":"Point","coordinates":[3.7304032,51.05328]},"properties":{"NAAM":"Komkommertijd","STRAAT":"Reep","NUMMER":"14","POSTCODE":"9000","BUS":"","GEMEENTE":"Gent","WEBADRES":"www.komkommertijd.be","telefoon":"09\/2690210","CATEGORIE":"vegetarische-restaurants","LABEL":"fairtade, bio, vegetarisch","opmerkingen":""}},{"type":"Feature","geometry":{"type":"Point","coordinates":[3.7121909,51.036808]},"properties":{"NAAM":"Lekker Gec","STRAAT":"K. Maria Hendrikaplein","NUMMER":"4","POSTCODE":"9000","BUS":"","GEMEENTE":"Gent","WEBADRES":"www.lekkergec.be","telefoon":"09\/2428750","CATEGORIE":"vegetarische-restaurants","LABEL":"bio, vegetarisch","opmerkingen":""}},{"type":"Feature","geometry":{"type":"Point","coordinates":[3.724769,51.046986]},"properties":{"NAAM":"Pacha Mama","STRAAT":"J.B. Guinardstraat","NUMMER":"9","POSTCODE":"9000","BUS":"","GEMEENTE":"Gent","WEBADRES":"www.pachamamagent.be","telefoon":"09\/3303335","CATEGORIE":"vegetarische-restaurants","LABEL":"bio, vegetarisch","opmerkingen":""}},{"type":"Feature","geometry":{"type":"Point","coordinates":[3.724121,51.05822]},"properties":{"NAAM":"Panda","STRAAT":"Oudburg","NUMMER":"38","POSTCODE":"9000","BUS":"","GEMEENTE":"Gent","WEBADRES":"www.viadagio.be","telefoon":"09\/2250786","CATEGORIE":"vegetarische-restaurants","LABEL":"fairtrade, bio, vegetarisch","opmerkingen":""}},{"type":"Feature","geometry":{"type":"Point","coordinates":[3.7226186,51.0558]},"properties":{"NAAM":"Tasty World","STRAAT":"Hoogpoort","NUMMER":"1","POSTCODE":"9000","BUS":"","GEMEENTE":"Gent","WEBADRES":"www.tastyworld.be","telefoon":"09\/2257407","CATEGORIE":"vegetarische-restaurants","LABEL":"fairtrade, vegetarisch","opmerkingen":""}},{"type":"Feature","geometry":{"type":"Point","coordinates":[3.727071,51.04874]},"properties":{"NAAM":"Tasty World","STRAAT":"Walpoortstraat","NUMMER":"38","POSTCODE":"9000","BUS":"","GEMEENTE":"Gent","WEBADRES":"www.tastyworld.be","telefoon":"09\/3307527","CATEGORIE":"vegetarische-restaurants","LABEL":"fairtrade, vegetarisch","opmerkingen":""}},{"type":"Feature","geometry":{"type":"Point","coordinates":[3.7163298,51.035595]},"properties":{"NAAM":"Tuin van Eten","STRAAT":"Kortrijksesteenweg","NUMMER":"573","POSTCODE":"9000","BUS":"","GEMEENTE":"Gent","WEBADRES":"www.restauranttuinvaneten.be","telefoon":"09\/2455466","CATEGORIE":"vegetarische-restaurants","LABEL":"bio, vegetarisch","opmerkingen":""}},{"type":"Feature","geometry":{"type":"Point","coordinates":[3.7211547,51.057705]},"properties":{"NAAM":"Avalon","STRAAT":"Geldmunt","NUMMER":"32","POSTCODE":"9000","BUS":"","GEMEENTE":"Gent","WEBADRES":"www.avalon.be","telefoon":"09\/2244528","CATEGORIE":"vegetarische-restaurants","LABEL":"bio, vegetarisch","opmerkingen":""}},{"type":"Feature","geometry":{"type":"Point","coordinates":[3.722166,51.056095]},"properties":{"NAAM":"Biomarkt Groentenmarkt","STRAAT":"Groentenmarkt","NUMMER":"","POSTCODE":"9000","BUS":"","GEMEENTE":"Gent","WEBADRES":"www.gent.be","telefoon":"09\/2214528","CATEGORIE":"markten","LABEL":"bio","opmerkingen":""}},{"type":"Feature","geometry":{"type":"Point","coordinates":[3.720333,51.05147]},"properties":{"NAAM":"Boekenmarkt Ajuinlei","STRAAT":"Ajuinlei","NUMMER":"","POSTCODE":"9000","BUS":"","GEMEENTE":"Gent","WEBADRES":"http:\/\/www.dekenijsintmichiels.be\/boekenmarkt.html","telefoon":"","CATEGORIE":"markten","LABEL":"recuperatie en hergebruik","opmerkingen":""}},{"type":"Feature","geometry":{"type":"Point","coordinates":[3.7383037,51.068546]},"properties":{"NAAM":"Boerenmarkt  Afrikalaan","STRAAT":"Afrikalaan","NUMMER":"","POSTCODE":"9000","BUS":"","GEMEENTE":"Gent","WEBADRES":"www.boerenmarkt.blogspot.be","telefoon":"","CATEGORIE":"markten","LABEL":"lokaal geproduceerd","opmerkingen":""}},{"type":"Feature","geometry":{"type":"Point","coordinates":[3.7228253,51.066193]},"properties":{"NAAM":"Boerenmarkt Blaisantvest","STRAAT":"Blaisantvest","NUMMER":"","POSTCODE":"9000","BUS":"","GEMEENTE":"Gent","WEBADRES":"www.boerenmarkt.blogspot.be","telefoon":"","CATEGORIE":"markten","LABEL":"lokaal geproduceerd","opmerkingen":""}},{"type":"Feature","geometry":{"type":"Point","coordinates":[3.751517,51.044167]},"properties":{"NAAM":"Boerenmarkt Gentbrugge","STRAAT":"Kerkstraat","NUMMER":"","POSTCODE":"9000","BUS":"","GEMEENTE":"Gent","WEBADRES":"www.boerenmarkt.blogspot.be","telefoon":"","CATEGORIE":"markten","LABEL":"lokaal geproduceerd","opmerkingen":""}},{"type":"Feature","geometry":{"type":"Point","coordinates":[3.753885,51.065342]},"properties":{"NAAM":"Boerenmarkt Oostakker","STRAAT":"Antwerpse Steenweg","NUMMER":"","POSTCODE":"9000","BUS":"","GEMEENTE":"Gent","WEBADRES":"www.boerenmarkt.blogspot.be","telefoon":"","CATEGORIE":"markten","LABEL":"lokaal geproduceerd","opmerkingen":""}},{"type":"Feature","geometry":{"type":"Point","coordinates":[3.6951778,51.057713]},"properties":{"NAAM":"Boerenmarkt Rooigem","STRAAT":"Charles l'Epeplein","NUMMER":"","POSTCODE":"9000","BUS":"","GEMEENTE":"Gent","WEBADRES":"www.boerenmarkt.blogspot.be","telefoon":"","CATEGORIE":"markten","LABEL":"lokaal geproduceerd","opmerkingen":""}},{"type":"Feature","geometry":{"type":"Point","coordinates":[3.7174244,51.05434]},"properties":{"NAAM":"Boerenmarkt Sint-Amandsberg","STRAAT":"Spijkstraat\/Halve Maanstraat","NUMMER":"","POSTCODE":"9000","BUS":"","GEMEENTE":"Gent","WEBADRES":"www.boerenmarkt.blogspot.be","telefoon":"","CATEGORIE":"markten","LABEL":"lokaal geproduceerd","opmerkingen":""}},{"type":"Feature","geometry":{"type":"Point","coordinates":[3.7229383,51.053944]},"properties":{"NAAM":"Boekenmarkt St-Niklaaskerk","STRAAT":"St-Niklaaskerk","NUMMER":"","POSTCODE":"9000","BUS":"","GEMEENTE":"Gent","WEBADRES":"","telefoon":"","CATEGORIE":"markten","LABEL":"recuperatie en hergebruik","opmerkingen":""}},{"type":"Feature","geometry":{"type":"Point","coordinates":[3.7273784,51.05677]},"properties":{"NAAM":"Rommelmarkt bij St-Jacobs","STRAAT":"Bij Sint-Jacobs","NUMMER":"","POSTCODE":"9000","BUS":"","GEMEENTE":"Gent","WEBADRES":"www.brocantmarkt-sintjacobs.be","telefoon":"09\/2301761","CATEGORIE":"markten","LABEL":"recuperatie en hergebruik","opmerkingen":""}},{"type":"Feature","geometry":{"type":"Point","coordinates":[3.739881,51.069996]},"properties":{"NAAM":"Boerenmarkt Scandinavistraat","STRAAT":"Scandinavistraat","NUMMER":"","POSTCODE":"9000","BUS":"","GEMEENTE":"Gent","WEBADRES":"www.boerenmarkt.blogspot.be","telefoon":"","CATEGORIE":"markten","LABEL":"lokaal geproduceerd","opmerkingen":""}},{"type":"Feature","geometry":{"type":"Point","coordinates":[3.7177947,51.05639]},"properties":{"NAAM":"Dieet en natuur","STRAAT":"Burgstraat","NUMMER":"32-34","POSTCODE":"9000","BUS":"","GEMEENTE":"Gent","WEBADRES":"","telefoon":"09\/2236292","CATEGORIE":"bio-voedingswinkels","LABEL":"bio","opmerkingen":""}},{"type":"Feature","geometry":{"type":"Point","coordinates":[3.7226262,51.05094]},"properties":{"NAAM":"Ayuno","STRAAT":"Korte Meer","NUMMER":"22","POSTCODE":"9000","BUS":"B","GEMEENTE":"Gent","WEBADRES":"www.ayuno.be","telefoon":"09\/2231241","CATEGORIE":"bio-voedingswinkels","LABEL":"fairtrade, bio, vegetarisch","opmerkingen":""}},{"type":"Feature","geometry":{"type":"Point","coordinates":[3.6967795,51.056385]},"properties":{"NAAM":"Bio-Planet","STRAAT":"Drongensesteenweg","NUMMER":"134","POSTCODE":"9000","BUS":"","GEMEENTE":"Gent","WEBADRES":"www.bioplanet.be","telefoon":"09\/2170455","CATEGORIE":"bio-voedingswinkels","LABEL":"fairtrade, bio, vegetarisch","opmerkingen":""}},{"type":"Feature","geometry":{"type":"Point","coordinates":[3.751238,51.06334]},"properties":{"NAAM":"Bioshop - Pimpernel","STRAAT":"Antwerpsesteenweg","NUMMER":"450","POSTCODE":"9000","BUS":"","GEMEENTE":"Gent","WEBADRES":"www.pimpernel.be","telefoon":"09\/2285422","CATEGORIE":"bio-voedingswinkels","LABEL":"fairtrade, bio, vegetarisch","opmerkingen":""}},{"type":"Feature","geometry":{"type":"Point","coordinates":[3.725912,51.038734]},"properties":{"NAAM":"Bioshop - Pimpernel","STRAAT":"Charles De Kerckhovelaan","NUMMER":"423","POSTCODE":"9000","BUS":"","GEMEENTE":"Gent","WEBADRES":"www.pimpernel.be","telefoon":"09\/2452545","CATEGORIE":"bio-voedingswinkels","LABEL":"fairtrade, bio, vegetarisch","opmerkingen":""}},{"type":"Feature","geometry":{"type":"Point","coordinates":[3.72295,51.059452]},"properties":{"NAAM":"De Blauwe Bloem","STRAAT":"Lange Steenstraat","NUMMER":"52","POSTCODE":"9000","BUS":"","GEMEENTE":"Gent","WEBADRES":"www.de-blauwe-bloem.org","telefoon":"09\/2330574","CATEGORIE":"bio-voedingswinkels","LABEL":"fairtrade, bio, vegetarisch","opmerkingen":""}},{"type":"Feature","geometry":{"type":"Point","coordinates":[3.7378633,51.050148]},"properties":{"NAAM":"Het Hinkelspel","STRAAT":"F. Lousbergkaai","NUMMER":"33","POSTCODE":"9000","BUS":"","GEMEENTE":"Gent","WEBADRES":"www.hethinkelspel.be","telefoon":"09\/2242096","CATEGORIE":"bio-voedingswinkels","LABEL":"bio","opmerkingen":""}},{"type":"Feature","geometry":{"type":"Point","coordinates":[3.7166145,51.039787]},"properties":{"NAAM":"Origin'O","STRAAT":"Kortrijksesteenweg","NUMMER":"148","POSTCODE":"9000","BUS":"","GEMEENTE":"Gent","WEBADRES":"www.origino.be","telefoon":"09\/2213745","CATEGORIE":"bio-voedingswinkels","LABEL":"fairtrade, bio, vegetarisch","opmerkingen":""}},{"type":"Feature","geometry":{"type":"Point","coordinates":[3.724121,51.05822]},"properties":{"NAAM":"Panda","STRAAT":"Oudburg","NUMMER":"38","POSTCODE":"9000","BUS":"","GEMEENTE":"Gent","WEBADRES":"www.viadagio.be","telefoon":"09\/2250786","CATEGORIE":"bio-voedingswinkels","LABEL":"fairtrade, bio, vegetarisch","opmerkingen":""}},{"type":"Feature","geometry":{"type":"Point","coordinates":[3.7149587,51.056236]},"properties":{"NAAM":"Tavontuur","STRAAT":"Burgstraat","NUMMER":"137","POSTCODE":"9000","BUS":"","GEMEENTE":"Gent","WEBADRES":"https:\/\/www.facebook.com\/tavontuur?fref=ts","telefoon":"09\/2258795","CATEGORIE":"bio-voedingswinkels","LABEL":"fairtrade, bio","opmerkingen":""}},{"type":"Feature","geometry":{"type":"Point","coordinates":[3.7121975,51.03687]},"properties":{"NAAM":"Oxfam Wereldwinkel Gent Sint-Pieters","STRAAT":"Maria-Hendrikaplein","NUMMER":"5","POSTCODE":"9000","BUS":"","GEMEENTE":"Gent","WEBADRES":"http:\/\/www.oxfamwereldwinkels.be\/pageview.aspx?pv_mid=8458&wkl_ID=310","telefoon":"09\/2428757","CATEGORIE":"Oxfam Wereldwinkel","LABEL":"fairtrade, bio","opmerkingen":"Fair Trade voeding, kledij en geschenken"}},{"type":"Feature","geometry":{"type":"Point","coordinates":[3.7283857,51.047966]},"properties":{"NAAM":"Oxfam Wereldwinkel Gent-Centrum","STRAAT":"Lammerstraat","NUMMER":"16","POSTCODE":"9000","BUS":"","GEMEENTE":"Gent","WEBADRES":"http:\/\/www.oxfamwereldwinkels.be\/pageview.aspx?pv_mid=8458&wkl_ID=307","telefoon":"09\/2234602","CATEGORIE":"Oxfam Wereldwinkel","LABEL":"fairtrade, bio","opmerkingen":"Fair Trade voeding, kledij en geschenken"}},{"type":"Feature","geometry":{"type":"Point","coordinates":[3.7545536,51.0407]},"properties":{"NAAM":"Oxfam Wereldwinkel Gentbrugge","STRAAT":"Leo Tertzweillaan","NUMMER":"2","POSTCODE":"9000","BUS":"","GEMEENTE":"Gent","WEBADRES":"http:\/\/www.oxfamwereldwinkels.be\/pageview.aspx?pv_mid=8458&wkl_ID=306","telefoon":"09\/2323262","CATEGORIE":"Oxfam Wereldwinkel","LABEL":"fairtrade, bio","opmerkingen":"Fair Trade voeding, kledij en geschenken"}},{"type":"Feature","geometry":{"type":"Point","coordinates":[3.680981,51.07153]},"properties":{"NAAM":"Oxfam Wereldwinkel Mariakerke","STRAAT":"Brugsesteenweg","NUMMER":"526","POSTCODE":"9000","BUS":"","GEMEENTE":"Gent","WEBADRES":"http:\/\/www.oxfamwereldwinkels.be\/pageview.aspx?pv_mid=8458&wkl_ID=376","telefoon":"09\/3308684","CATEGORIE":"Oxfam Wereldwinkel","LABEL":"fairtrade, bio","opmerkingen":"Fair Trade voeding, kledij en geschenken"}},{"type":"Feature","geometry":{"type":"Point","coordinates":[3.7553177,51.078693]},"properties":{"NAAM":"Oxfam Wereldwinkel Gent-Oost","STRAAT":"Lourdesstraat","NUMMER":"55","POSTCODE":"9000","BUS":"","GEMEENTE":"Gent","WEBADRES":"http:\/\/www.oxfamwereldwinkels.be\/pageview.aspx?pv_mid=8458&wkl_ID=309","telefoon":"09\/2511092","CATEGORIE":"Oxfam Wereldwinkel","LABEL":"fairtrade, bio","opmerkingen":"Fair Trade voeding, kledij en geschenken"}},{"type":"Feature","geometry":{"type":"Point","coordinates":[3.7174354,51.090252]},"properties":{"NAAM":"Oxfam Wereldwinkel Wondelgem","STRAAT":"Vierweegsestraat","NUMMER":"24","POSTCODE":"9000","BUS":"","GEMEENTE":"Gent","WEBADRES":"http:\/\/www.oxfamwereldwinkels.be\/pageview.aspx?pv_mid=8458&wkl_ID=450","telefoon":"09\/2537281","CATEGORIE":"Oxfam Wereldwinkel","LABEL":"fairtrade, bio","opmerkingen":"Fair Trade voeding, kledij en geschenken"}},{"type":"Feature","geometry":{"type":"Point","coordinates":[3.6615262,51.05117]},"properties":{"NAAM":"Oxfam Wereldwinkel Drongen","STRAAT":"Abdijmolenstraat","NUMMER":"36","POSTCODE":"9000","BUS":"","GEMEENTE":"Gent","WEBADRES":"http:\/\/www.oxfamwereldwinkels.be\/pageview.aspx?pv_mid=8458&wkl_ID=507","telefoon":"0470\/511007","CATEGORIE":"Oxfam Wereldwinkel","LABEL":"fairtrade, bio","opmerkingen":"Fair Trade voeding, kledij en geschenken"}},{"type":"Feature","geometry":{"type":"Point","coordinates":[3.713645,51.036217]},"properties":{"NAAM":"De Speelfontein","STRAAT":"Koningin Astridlaan","NUMMER":"169","POSTCODE":"9000","BUS":"","GEMEENTE":"Gent","WEBADRES":"www.despeelfontein.be","telefoon":"09\/2800530","CATEGORIE":"speelgoedwinkel","LABEL":"fairtrade, ecovriendelijk","opmerkingen":"speelgoed, kinderkledij, wasbare luiers."}},{"type":"Feature","geometry":{"type":"Point","coordinates":[3.732809,51.05157]},"properties":{"NAAM":"K.R.A.T.","STRAAT":"Keizer Karelstraat","NUMMER":"144","POSTCODE":"9000","BUS":"","GEMEENTE":"Gent","WEBADRES":"www.krat.be","telefoon":"09\/2236188","CATEGORIE":"speelgoedwinkel","LABEL":"ecovriendelijk","opmerkingen":""}},{"type":"Feature","geometry":{"type":"Point","coordinates":[3.7487934,51.059628]},"properties":{"NAAM":"La\u00efs Stof en Ambacht","STRAAT":"Schoolstraat","NUMMER":"32","POSTCODE":"9040","BUS":"","GEMEENTE":"Gent","WEBADRES":"www.laiskyoko.be ","telefoon":"09\/2341828","CATEGORIE":"kledij- en stoffenwinkels","LABEL":"bio, ecovriendelijk","opmerkingen":"stoffenwinkel en naaiatelier"}},{"type":"Feature","geometry":{"type":"Point","coordinates":[3.7232134,51.055466]},"properties":{"NAAM":"O'zon","STRAAT":"Hoogpoort","NUMMER":"26","POSTCODE":"9000","BUS":"","GEMEENTE":"Gent","WEBADRES":"www.o-zon.net","telefoon":"0489\/296055","CATEGORIE":"kledij- en stoffenwinkels","LABEL":"fairtrade, bio, ecovriendelijk","opmerkingen":""}},{"type":"Feature","geometry":{"type":"Point","coordinates":[3.7244828,51.053326]},"properties":{"NAAM":"Today is a good day","STRAAT":"Mageleinestraat","NUMMER":"","POSTCODE":"9000","BUS":"","GEMEENTE":"Gent","WEBADRES":"www.todayisagoodday.be","telefoon":"09\/3245190","CATEGORIE":"kledij- en stoffenwinkels","LABEL":"fairtrade, bio, ecovriendelijk","opmerkingen":""}},{"type":"Feature","geometry":{"type":"Point","coordinates":[3.723122,51.05473]},"properties":{"NAAM":"Ethnique","STRAAT":"Donkersteeg","NUMMER":"18","POSTCODE":"9000","BUS":"A","GEMEENTE":"Gent","WEBADRES":"www.ethnique.be","telefoon":"09\/2798230","CATEGORIE":"kledij- en stoffenwinkels","LABEL":"fairtrade, bio, ecovriendelijk","opmerkingen":""}},{"type":"Feature","geometry":{"type":"Point","coordinates":[3.724568,51.053135]},"properties":{"NAAM":"Yak en Yeti","STRAAT":"Mageleinestraat","NUMMER":"13","POSTCODE":"9000","BUS":"","GEMEENTE":"Gent","WEBADRES":"www.yak-yeti.be","telefoon":"09\/3245175","CATEGORIE":"kledij- en stoffenwinkels","LABEL":"fairtrade, bio, ecovriendelijk","opmerkingen":""}},{"type":"Feature","geometry":{"type":"Point","coordinates":[3.7174244,51.05434]},"properties":{"NAAM":"Biokapsalon Marianne","STRAAT":"Gebroeders Desmedtstraat","NUMMER":"8","POSTCODE":"9000","BUS":"","GEMEENTE":"Gent","WEBADRES":"https:\/\/www.facebook.com\/pages\/Biokapsalon-Marianne\/187887907917158","telefoon":"09\/2242123","CATEGORIE":"Beauty","LABEL":"bio, ecovriendelijk","opmerkingen":"kapsalon"}},{"type":"Feature","geometry":{"type":"Point","coordinates":[3.7226708,51.05591]},"properties":{"NAAM":"LUSH","STRAAT":"Langemunt","NUMMER":"1","POSTCODE":"9000","BUS":"","GEMEENTE":"Gent","WEBADRES":"https:\/\/www.facebook.com\/LushGent","telefoon":"09\/2251592","CATEGORIE":"Beauty","LABEL":"fairtrade, ecovriendelijk","opmerkingen":"verzorgingsproducten"}},{"type":"Feature","geometry":{"type":"Point","coordinates":[3.7102299,51.061817]},"properties":{"NAAM":"She's Bio","STRAAT":"Wondelgemstraat","NUMMER":"59","POSTCODE":"9000","BUS":"","GEMEENTE":"Gent","WEBADRES":"https:\/\/www.facebook.com\/ShesBio","telefoon":"09\/3248988","CATEGORIE":"Beauty","LABEL":"bio","opmerkingen":"kapsalon"}},{"type":"Feature","geometry":{"type":"Point","coordinates":[3.7245643,51.057327]},"properties":{"NAAM":"Herbacos","STRAAT":"Grootkanonplein","NUMMER":"7","POSTCODE":"9000","BUS":"","GEMEENTE":"Gent","WEBADRES":"www.herbacos.be","telefoon":"09\/2254522","CATEGORIE":"Beauty","LABEL":"bio, ecovriendelijk","opmerkingen":"verzorgingsproducten"}},{"type":"Feature","geometry":{"type":"Point","coordinates":[3.733031,51.053356]},"properties":{"NAAM":"Up2You","STRAAT":"Gebroeders Van Eyckstraat","NUMMER":"19","POSTCODE":"9000","BUS":"A","GEMEENTE":"Gent","WEBADRES":"www.up-2-you.be ","telefoon":"09\/3244562","CATEGORIE":"Beauty","LABEL":"bio","opmerkingen":"kapsalon"}},{"type":"Feature","geometry":{"type":"Point","coordinates":[3.6981769,51.059887]},"properties":{"NAAM":"Aquara","STRAAT":"Cederstraat","NUMMER":"20","POSTCODE":"9000","BUS":"","GEMEENTE":"Gent","WEBADRES":"www.aquara.be","telefoon":"0479\/683031","CATEGORIE":"Beauty","LABEL":"bio, ecovriendelijk","opmerkingen":""}},{"type":"Feature","geometry":{"type":"Point","coordinates":[3.702308,51.07625]},"properties":{"NAAM":"Goed van Doen","STRAAT":"Hogekouterstraat","NUMMER":"47","POSTCODE":"9030","BUS":"","GEMEENTE":"Gent","WEBADRES":"www.goedvandoen.be","telefoon":"0474\/297904","CATEGORIE":"kledij- en stoffenwinkels","LABEL":"fairtrade, bio","opmerkingen":"webshop geen directe verkoop"}},{"type":"Feature","geometry":{"type":"Point","coordinates":[3.708616,51.03858]},"properties":{"NAAM":"klein spook","STRAAT":"Aaigemstraat ","NUMMER":"43","POSTCODE":"9000","BUS":"","GEMEENTE":"Gent","WEBADRES":"www.kleinspook.be","telefoon":"09\/3885227","CATEGORIE":"kledij- en stoffenwinkels","LABEL":"ecovriendelijk","opmerkingen":"wasbare luiers en kinderkledij webshop enkel op afspraak"}},{"type":"Feature","geometry":{"type":"Point","coordinates":[3.7683473,51.031345]},"properties":{"NAAM":"koekoekmeubelen","STRAAT":"Tennisstraat","NUMMER":"90","POSTCODE":"9050","BUS":"","GEMEENTE":"Gent","WEBADRES":"www.koekoekmeubelen.be","telefoon":"0498\/111750","CATEGORIE":"ecologisch bouwen","LABEL":"ecovriendelijk","opmerkingen":""}},{"type":"Feature","geometry":{"type":"Point","coordinates":[3.7450955,51.050518]},"properties":{"NAAM":"luierhoek","STRAAT":"Kunstenaarstraat","NUMMER":"116","POSTCODE":"9040","BUS":"","GEMEENTE":"Gent","WEBADRES":"www.luierhoek.be","telefoon":"0491\/895387","CATEGORIE":"kledij- en stoffenwinkels","LABEL":"ecovriendelijk","opmerkingen":"wasbare luiers en verzorging, webshop enkel op afspraak"}},{"type":"Feature","geometry":{"type":"Point","coordinates":[3.721697,51.043686]},"properties":{"NAAM":"Doorgeefwinkel","STRAAT":"Kanunnikstraat","NUMMER":"3","POSTCODE":"9000","BUS":"","GEMEENTE":"Gent","WEBADRES":"doorgeefwinkel@gmail.com","telefoon":"","CATEGORIE":"buiten categorie","LABEL":"hergebruik","opmerkingen":"enkel woensdag van 14u tot 17u"}},{"type":"Feature","geometry":{"type":"Point","coordinates":[3.7182927,51.067223]},"properties":{"NAAM":"Recupdesign","STRAAT":"Nieuwevaart","NUMMER":"118","POSTCODE":"9000","BUS":"E004","GEMEENTE":"Gent","WEBADRES":"http:\/\/www.labeur.be\/recup-design\/over-recup-design","telefoon":"09\/2258185","CATEGORIE":"ecologisch bouwen","LABEL":"hergebruik","opmerkingen":"sociaal atelier meubelen uit recuperatiehout"}},{"type":"Feature","geometry":{"type":"Point","coordinates":[3.7126622,51.06456]},"properties":{"NAAM":"Weggeefwinkel Rabot","STRAAT":"Elsstraat","NUMMER":"","POSTCODE":"9000","BUS":"","GEMEENTE":"Gent","WEBADRES":"https:\/\/www.facebook.com\/pages\/Weggeefwinkel-Rabot\/518530404850003","telefoon":"","CATEGORIE":"buiten categorie","LABEL":"hergebruik","opmerkingen":""}},{"type":"Feature","geometry":{"type":"Point","coordinates":[3.7025788,51.058628]},"properties":{"NAAM":"Kringloopwinkel Brugse Poort","STRAAT":"Haspelstraat","NUMMER":"49","POSTCODE":"9000","BUS":"","GEMEENTE":"Gent","WEBADRES":"www.kringloopwinkelgent.be","telefoon":"09\/2272564","CATEGORIE":"kringloop- en recupwinkels","LABEL":"hergebruik, sociale tewerkstelling","opmerkingen":""}},{"type":"Feature","geometry":{"type":"Point","coordinates":[3.7415469,51.04402]},"properties":{"NAAM":"De Kringwinkel\/Ateljee","STRAAT":"Tarbotstraat","NUMMER":"21","POSTCODE":"9000","BUS":"","GEMEENTE":"Gent","WEBADRES":"www.uwkringwinkel.be","telefoon":"09\/2232086","CATEGORIE":"kringloop- en recupwinkels","LABEL":"hergebruik, sociale tewerkstelling","opmerkingen":""}},{"type":"Feature","geometry":{"type":"Point","coordinates":[3.7175605,51.04981]},"properties":{"NAAM":"De Kringwinkel\/Ateljee","STRAAT":"Zandpoorststraat","NUMMER":"49","POSTCODE":"9000","BUS":"","GEMEENTE":"Gent","WEBADRES":"www.uwkringwinkel.be","telefoon":"09\/2339620","CATEGORIE":"kringloop- en recupwinkels","LABEL":"hergebruik, sociale tewerkstelling","opmerkingen":""}},{"type":"Feature","geometry":{"type":"Point","coordinates":[3.6818998,51.133656]},"properties":{"NAAM":"De Kringwinkel\/Ateljee","STRAAT":"Vlaamse Kaai","NUMMER":"10","POSTCODE":"9000","BUS":"","GEMEENTE":"Gent","WEBADRES":"www.uwkringwinkel.be","telefoon":"09\/2692554","CATEGORIE":"kringloop- en recupwinkels","LABEL":"hergebruik, sociale tewerkstelling","opmerkingen":""}},{"type":"Feature","geometry":{"type":"Point","coordinates":[3.7375276,51.058445]},"properties":{"NAAM":"De Kringwinkel\/Ateljee","STRAAT":"Pijndersstraat","NUMMER":"52","POSTCODE":"9000","BUS":"","GEMEENTE":"Gent","WEBADRES":"www.uwkringwinkel.be","telefoon":"09\/2235365","CATEGORIE":"kringloop- en recupwinkels","LABEL":"hergebruik, sociale tewerkstelling","opmerkingen":""}},{"type":"Feature","geometry":{"type":"Point","coordinates":[3.6854115,51.06833]},"properties":{"NAAM":"De Kringwinkel\/Ateljee","STRAAT":"Brugsesteenweg","NUMMER":"354","POSTCODE":"9000","BUS":"","GEMEENTE":"Gent","WEBADRES":"www.uwkringwinkel.be","telefoon":"09\/2364305","CATEGORIE":"kringloop- en recupwinkels","LABEL":"hergebruik, sociale tewerkstelling","opmerkingen":""}},{"type":"Feature","geometry":{"type":"Point","coordinates":[3.739208,51.063557]},"properties":{"NAAM":"2dehandsshop","STRAAT":"Afrikalaan","NUMMER":"40","POSTCODE":"9000","BUS":"","GEMEENTE":"Gent","WEBADRES":"www.2dehandsshop.be","telefoon":"09\/2858729","CATEGORIE":"kringloop- en recupwinkels","LABEL":"hergebruik","opmerkingen":""}},{"type":"Feature","geometry":{"type":"Point","coordinates":[3.7265754,51.057735]},"properties":{"NAAM":"Antiek-Depot","STRAAT":"Baudelostraat","NUMMER":"15","POSTCODE":"9000","BUS":"","GEMEENTE":"Gent","WEBADRES":"www.antiek-depot.com","telefoon":"0477\/606199","CATEGORIE":"tweedehandsinterieur","LABEL":"hergebruik","opmerkingen":"antiek"}},{"type":"Feature","geometry":{"type":"Point","coordinates":[3.739205,51.063564]},"properties":{"NAAM":"Ecoshop","STRAAT":"Afrikalaan","NUMMER":"50","POSTCODE":"9000","BUS":"","GEMEENTE":"Gent","WEBADRES":"www.ecoshop.be","telefoon":"09\/2237068","CATEGORIE":"kringloop- en recupwinkels","LABEL":"hergebruik","opmerkingen":""}},{"type":"Feature","geometry":{"type":"Point","coordinates":[3.6802077,51.074337]},"properties":{"NAAM":"Ecoshop","STRAAT":"Brugsesteenweg","NUMMER":"595","POSTCODE":"9000","BUS":"","GEMEENTE":"Gent","WEBADRES":"www.ecoshop.be","telefoon":"09\/2364289","CATEGORIE":"kringloop- en recupwinkels","LABEL":"hergebruik","opmerkingen":""}},{"type":"Feature","geometry":{"type":"Point","coordinates":[3.724988,51.05929]},"properties":{"NAAM":"Ceci n'est pas une picerie","STRAAT":"Sluizeken","NUMMER":"28","POSTCODE":"9000","BUS":"","GEMEENTE":"Gent","WEBADRES":"https:\/\/www.facebook.com\/pas.une.epicerie\/info","telefoon":"0486\/658201","CATEGORIE":"tweedehandsinterieur","LABEL":"hergebruik","opmerkingen":"vintage design"}},{"type":"Feature","geometry":{"type":"Point","coordinates":[3.731755,51.057007]},"properties":{"NAAM":"Het Archief","STRAAT":"Steendam","NUMMER":"110","POSTCODE":"9000","BUS":"","GEMEENTE":"Gent","WEBADRES":"www.het-archief.be","telefoon":"09\/2235200","CATEGORIE":"tweedehandsinterieur","LABEL":"herbebruik","opmerkingen":"antiek en vintage design"}},{"type":"Feature","geometry":{"type":"Point","coordinates":[3.7274806,51.05839]},"properties":{"NAAM":"Het Tijdreisbureau","STRAAT":"Ottogracht","NUMMER":"35","POSTCODE":"9000","BUS":"","GEMEENTE":"Gent","WEBADRES":"http:\/\/www.tijdreisbureau.be\/","telefoon":"0496\/559681","CATEGORIE":"tweedehandsinterieur","LABEL":"hergebruik","opmerkingen":"antiek en vintage design"}},{"type":"Feature","geometry":{"type":"Point","coordinates":[3.737814,51.05692]},"properties":{"NAAM":"Burkelbloem","STRAAT":"Dampoortstraat","NUMMER":"92","POSTCODE":"9000","BUS":"","GEMEENTE":"Gent","WEBADRES":"https:\/\/www.facebook.com\/Burkelbloem","telefoon":"0484\/967953","CATEGORIE":"tweedehandsinterieur","LABEL":"hergebruik","opmerkingen":"brocante en vintage decoratie"}},{"type":"Feature","geometry":{"type":"Point","coordinates":[3.7198894,51.056446]},"properties":{"NAAM":"The Fallen Angels","STRAAT":"Jan Breydelstraat","NUMMER":"29-31","POSTCODE":"9000","BUS":"","GEMEENTE":"Gent","WEBADRES":"http:\/\/www.the-fallen-angels.com\/","telefoon":"09\/2239415","CATEGORIE":"tweedehandsinterieur","LABEL":"hergebruik","opmerkingen":"vintage collectors items"}},{"type":"Feature","geometry":{"type":"Point","coordinates":[3.7271888,51.04807]},"properties":{"NAAM":"Anne \/ B.","STRAAT":"Sint-Pietersnieuwstraat","NUMMER":"84","POSTCODE":"9000","BUS":"","GEMEENTE":"Gent","WEBADRES":"","telefoon":"09\/2242146","CATEGORIE":"tweedehandskledij","LABEL":"hergebruik","opmerkingen":""}},{"type":"Feature","geometry":{"type":"Point","coordinates":[3.7221014,51.046318]},"properties":{"NAAM":"Boomerang","STRAAT":"Kortrijksepoortstraat","NUMMER":"142","POSTCODE":"9000","BUS":"","GEMEENTE":"Gent","WEBADRES":"https:\/\/www.facebook.com\/boomeranggent","telefoon":"","CATEGORIE":"tweedehandskledij","LABEL":"hergebruik","opmerkingen":"vintage en retro"}},{"type":"Feature","geometry":{"type":"Point","coordinates":[3.7347898,51.056805]},"properties":{"NAAM":"House of Vintage","STRAAT":"Dampoortstraat","NUMMER":"27","POSTCODE":"9000","BUS":"","GEMEENTE":"Gent","WEBADRES":"https:\/\/www.facebook.com\/pages\/House-of-Vintage\/241650522528892","telefoon":"0487\/619066","CATEGORIE":"tweedehandskledij","LABEL":"hergebruik","opmerkingen":"vintage"}},{"type":"Feature","geometry":{"type":"Point","coordinates":[3.7129002,51.030693]},"properties":{"NAAM":"Illusions","STRAAT":"Kortrijksesteenweg","NUMMER":"614","POSTCODE":"9000","BUS":"","GEMEENTE":"Gent","WEBADRES":"https:\/\/www.facebook.com\/pages\/Illusion\/176352089169553","telefoon":"09\/2445870","CATEGORIE":"tweedehandskledij","LABEL":"hergebruik","opmerkingen":"tweedehands merkkledij"}},{"type":"Feature","geometry":{"type":"Point","coordinates":[3.7227,51.051014]},"properties":{"NAAM":"Olga's Retro","STRAAT":"Korte Meer","NUMMER":"23","POSTCODE":"9000","BUS":"","GEMEENTE":"Gent","WEBADRES":"http:\/\/olgaretro.weebly.com\/","telefoon":"","CATEGORIE":"tweedehandskledij","LABEL":"hergebruik","opmerkingen":""}},{"type":"Feature","geometry":{"type":"Point","coordinates":[3.7276464,51.057]},"properties":{"NAAM":"Oxfam Vintage","STRAAT":"Bij Sint-Jacobs","NUMMER":"12","POSTCODE":"9000","BUS":"","GEMEENTE":"Gent","WEBADRES":"http:\/\/www.oxfamsol.be\/nl\/-Vintageshop-Gent-.html","telefoon":"09\/2231353","CATEGORIE":"tweedehandskledij","LABEL":"hergebruik","opmerkingen":"vintage"}},{"type":"Feature","geometry":{"type":"Point","coordinates":[3.7267272,51.05657]},"properties":{"NAAM":"Pieternel","STRAAT":"Bij Sint-Jacobs","NUMMER":"5","POSTCODE":"9000","BUS":"","GEMEENTE":"Gent","WEBADRES":"","telefoon":"09\/2331414","CATEGORIE":"tweedehandskledij","LABEL":"hergebruik","opmerkingen":""}},{"type":"Feature","geometry":{"type":"Point","coordinates":[3.7219212,51.046974]},"properties":{"NAAM":"Think Twice","STRAAT":"Nederkouter","NUMMER":"118","POSTCODE":"9000","BUS":"","GEMEENTE":"Gent","WEBADRES":"thinktwice-secondhand.be\/shops\/vintage-gent-2","telefoon":"0495\/523266","CATEGORIE":"tweedehandskledij","LABEL":"hergebruik","opmerkingen":""}},{"type":"Feature","geometry":{"type":"Point","coordinates":[3.7201056,51.0513]},"properties":{"NAAM":"Think Twice","STRAAT":"Ajuinlei","NUMMER":"15","POSTCODE":"9000","BUS":"A","GEMEENTE":"Gent","WEBADRES":"thinktwice-secondhand.be\/shops\/ajuinlei-15a-gent\/","telefoon":"0495\/253435","CATEGORIE":"tweedehandskledij","LABEL":"hergebruik","opmerkingen":""}},{"type":"Feature","geometry":{"type":"Point","coordinates":[3.724869,51.057365]},"properties":{"NAAM":"Multiple Choice","STRAAT":"Meersenierstraat","NUMMER":"12","POSTCODE":"9000","BUS":"","GEMEENTE":"Gent","WEBADRES":"","telefoon":"09\/3715179","CATEGORIE":"tweedehandskledij","LABEL":"hergebruik","opmerkingen":"vintage"}},{"type":"Feature","geometry":{"type":"Point","coordinates":[3.7369318,51.056908]},"properties":{"NAAM":"Twice as nice","STRAAT":"Dampoortstraat","NUMMER":"72","POSTCODE":"9000","BUS":"","GEMEENTE":"Gent","WEBADRES":"","telefoon":"","CATEGORIE":"tweedehandskledij","LABEL":"hergebruik","opmerkingen":""}},{"type":"Feature","geometry":{"type":"Point","coordinates":[3.717638,51.056347]},"properties":{"NAAM":"Fann","STRAAT":"Burgstraat","NUMMER":"41","POSTCODE":"9000","BUS":"","GEMEENTE":"Gent","WEBADRES":"www.fann.be","telefoon":"","CATEGORIE":"tweedehandskledij","LABEL":"hergebruik","opmerkingen":"eigentijdse dameskledij"}},{"type":"Feature","geometry":{"type":"Point","coordinates":[3.7265136,51.06474]},"properties":{"NAAM":"Kiekeboe","STRAAT":"Tolhuislaan","NUMMER":"126","POSTCODE":"9000","BUS":"","GEMEENTE":"Gent","WEBADRES":"","telefoon":"09\/2255658","CATEGORIE":"tweedehands boeken en platen","LABEL":"hergebruik","opmerkingen":""}},{"type":"Feature","geometry":{"type":"Point","coordinates":[3.7348845,51.045452]},"properties":{"NAAM":"Vinyl Kitchen","STRAAT":"Lange Violettestraat","NUMMER":"160","POSTCODE":"9000","BUS":"","GEMEENTE":"Gent","WEBADRES":"www.vinylkitchen.be","telefoon":"0474\/255506","CATEGORIE":"tweedehands boeken en platen","LABEL":"hergebruik","opmerkingen":""}},{"type":"Feature","geometry":{"type":"Point","coordinates":[3.7221298,51.04638]},"properties":{"NAAM":"De Kaft","STRAAT":"Kortrijksepoortstraat","NUMMER":"5","POSTCODE":"9000","BUS":"A","GEMEENTE":"Gent","WEBADRES":"www.dekaft.be","telefoon":"09\/3296438","CATEGORIE":"tweedehands boeken en platen","LABEL":"hergebruik","opmerkingen":""}},{"type":"Feature","geometry":{"type":"Point","coordinates":[3.7174244,51.05434]},"properties":{"NAAM":"De Slegte","STRAAT":"Volderstraat","NUMMER":"7","POSTCODE":"9000","BUS":"","GEMEENTE":"Gent","WEBADRES":"https:\/\/www.facebook.com\/gentpolare","telefoon":"09\/2255918","CATEGORIE":"tweedehands boeken en platen","LABEL":"hergebruik","opmerkingen":""}},{"type":"Feature","geometry":{"type":"Point","coordinates":[3.72442,51.043785]},"properties":{"NAAM":"Oxfam Bookshop","STRAAT":"Sint-Amandstraat","NUMMER":"16","POSTCODE":"9000","BUS":"","GEMEENTE":"Gent","WEBADRES":"http:\/\/www.oxfamsol.be\/nl\/-Bookshop-Gent-.html","telefoon":"09\/2334213","CATEGORIE":"tweedehands boeken en platen","LABEL":"hergebruik","opmerkingen":""}},{"type":"Feature","geometry":{"type":"Point","coordinates":[3.7107499,51.037323]},"properties":{"NAAM":"Taxistop","STRAAT":"Maria Handrikaplein","NUMMER":"65","POSTCODE":"9000","BUS":"","GEMEENTE":"Gent","WEBADRES":"www.taxistop.be","telefoon":"09\/2423219","CATEGORIE":"infopunten","LABEL":"duurzame mobiliteit","opmerkingen":""}},{"type":"Feature","geometry":{"type":"Point","coordinates":[3.7107499,51.037323]},"properties":{"NAAM":"Autopia","STRAAT":"Maria-Hendrikaplein","NUMMER":"65","POSTCODE":"9000","BUS":"B","GEMEENTE":"Gent","WEBADRES":"www.autodelen.be","telefoon":"09\/2423275","CATEGORIE":"infopunten","LABEL":"duurzame mobiliteit","opmerkingen":"particulier autodelen"}},{"type":"Feature","geometry":{"type":"Point","coordinates":[3.7107499,51.037323]},"properties":{"NAAM":"Cambio","STRAAT":"Maria-Hendrikaplein","NUMMER":"65","POSTCODE":"9000","BUS":"B","GEMEENTE":"Gent","WEBADRES":"http:\/\/www.cambio.be\/","telefoon":"09\/2423217","CATEGORIE":"infopunten","LABEL":"duurzame mobiliteit","opmerkingen":"autodelen"}},{"type":"Feature","geometry":{"type":"Point","coordinates":[3.6985188,51.05838]},"properties":{"NAAM":"fietskeuken Brugse Poort","STRAAT":"Meibloemstraat","NUMMER":"14","POSTCODE":"9000","BUS":"","GEMEENTE":"Gent","WEBADRES":"www.fietskeuken.org","telefoon":"","CATEGORIE":"buiten categorie","LABEL":"duurzame mobiliteit","opmerkingen":"fietsherstel"}},{"type":"Feature","geometry":{"type":"Point","coordinates":[3.7081268,51.03448]},"properties":{"NAAM":"Max Mobiel","STRAAT":"Voskenslaan","NUMMER":"27","POSTCODE":"9000","BUS":"","GEMEENTE":"Gent","WEBADRES":"www.max-mobiel.be","telefoon":"09\/2428040","CATEGORIE":"buiten categorie","LABEL":"duurzame mobiliteit","opmerkingen":"fietspunt, fietsverhuur, fietsherstel"}},{"type":"Feature","geometry":{"type":"Point","coordinates":[3.7393682,51.057205]},"properties":{"NAAM":"Max Mobiel","STRAAT":"Octrooiplein","NUMMER":"10","POSTCODE":"9000","BUS":"","GEMEENTE":"Gent","WEBADRES":"www.max-mobiel.be","telefoon":"09\/2255459","CATEGORIE":"buiten categorie","LABEL":"duurzame mobiliteit","opmerkingen":"fietspunt, fietsverhuur, fietsherstel"}},{"type":"Feature","geometry":{"type":"Point","coordinates":[3.7186327,51.038044]},"properties":{"NAAM":"Dierenasiel","STRAAT":"P. Bergmansdreef","NUMMER":"2","POSTCODE":"9000","BUS":"","GEMEENTE":"Gent","WEBADRES":"www.dierenasielgent.be","telefoon":"09\/2225303","CATEGORIE":"dieren","LABEL":"ecovriendelijk","opmerkingen":""}},{"type":"Feature","geometry":{"type":"Point","coordinates":[3.747263,51.020218]},"properties":{"NAAM":"Vogels en Wilde dieren opvangcentrum","STRAAT":"Liedermeersweg","NUMMER":"14","POSTCODE":"9820","BUS":"","GEMEENTE":"Merelbeke","WEBADRES":"http:\/\/www.vocmerelbeke.be\/","telefoon":"09\/2304646","CATEGORIE":"dieren","LABEL":"ecovriendelijk","opmerkingen":""}},{"type":"Feature","geometry":{"type":"Point","coordinates":[3.7249887,51.083244]},"properties":{"NAAM":"Eurabo ecologische bouwmaterialen","STRAAT":"Wiedauwkaai","NUMMER":"87","POSTCODE":"9000","BUS":"","GEMEENTE":"Gent","WEBADRES":"www.eurabo.be","telefoon":"055\/235140","CATEGORIE":"ecologisch bouwen","LABEL":"ecovriendelijk","opmerkingen":"bouwmaterialen en aannemingen"}},{"type":"Feature","geometry":{"type":"Point","coordinates":[3.7174244,51.05434]},"properties":{"NAAM":"Lab 15 passiefhuizen","STRAAT":"Nieuwevaart","NUMMER":"118","POSTCODE":"9000","BUS":"Loods A007","GEMEENTE":"Gent","WEBADRES":"www.lab15.be","telefoon":"","CATEGORIE":"ecologisch bouwen","LABEL":"ecovriendelijk","opmerkingen":"duurzaam ontwerp en bouw"}},{"type":"Feature","geometry":{"type":"Point","coordinates":[3.7236938,51.042564]},"properties":{"NAAM":"Labeur ecorenovatie","STRAAT":"Kattenberg","NUMMER":"2","POSTCODE":"9000","BUS":"","GEMEENTE":"Gent","WEBADRES":"www.labeur.be","telefoon":"0473\/903066","CATEGORIE":"ecologisch bouwen","LABEL":"ecovriendelijk, sociale tewerkstelling","opmerkingen":"durzaam renoveren"}},{"type":"Feature","geometry":{"type":"Point","coordinates":[3.7522905,51.06477]},"properties":{"NAAM":"Tintelijn ecoverven","STRAAT":"Verkortingsstraat","NUMMER":"53","POSTCODE":"9040","BUS":"","GEMEENTE":"Gent","WEBADRES":"www.tintelijn.be","telefoon":"09\/2190960","CATEGORIE":"ecologisch bouwen","LABEL":"ecovriendelijk","opmerkingen":"natuurverven"}},{"type":"Feature","geometry":{"type":"Point","coordinates":[3.6898885,51.069855]},"properties":{"NAAM":"Het Stroburo","STRAAT":"Weefselstraat","NUMMER":"36","POSTCODE":"9000","BUS":"","GEMEENTE":"Gent","WEBADRES":"www.hetstrobureau.be","telefoon":"0498\/830930","CATEGORIE":"ecologisch bouwen","LABEL":"ecovriendelijk","opmerkingen":""}},{"type":"Feature","geometry":{"type":"Point","coordinates":[3.7232525,51.055477]},"properties":{"NAAM":"Aanaajaanaa","STRAAT":"Hoogpoort","NUMMER":"25","POSTCODE":"9000","BUS":"","GEMEENTE":"Gent","WEBADRES":"http:\/\/www.aanaajaanaa.be\/","telefoon":"0476\/755255","CATEGORIE":"Bed & Breakfast","LABEL":"fairtrade, bio, ecovriendelijk","opmerkingen":""}},{"type":"Feature","geometry":{"type":"Point","coordinates":[3.7061286,51.0601]},"properties":{"NAAM":"Ecohostel Andromeda","STRAAT":"Bargiekaai","NUMMER":"35","POSTCODE":"9000","BUS":"","GEMEENTE":"Gent","WEBADRES":"www.ecohostel.be","telefoon":"0486\/678033","CATEGORIE":"Bed & Breakfast","LABEL":"fairtrade, bio, ecovriendelijk","opmerkingen":""}},{"type":"Feature","geometry":{"type":"Point","coordinates":[3.708496,51.068573]},"properties":{"NAAM":"Compangie De Sporen","STRAAT":"Maisstraat","NUMMER":"10","POSTCODE":"9000","BUS":"","GEMEENTE":"Gent","WEBADRES":"http:\/\/www.compagniedesporen.be\/producten-en-diensten\/meubelrenovatie-atelier-","telefoon":"09\/2261220","CATEGORIE":"ecologisch bouwen","LABEL":"ecovriendelijk, sociale tewerkstelling","opmerkingen":"meubelrenovatie"}},{"type":"Feature","geometry":{"type":"Point","coordinates":[3.7204587,51.043236]},"properties":{"NAAM":"Toryumon Tattoo","STRAAT":"kortrijksepoortstraat","NUMMER":"253-255","POSTCODE":"9000","BUS":"","GEMEENTE":"Gent","WEBADRES":"http:\/\/www.toryumon.be\/nl\/contact.php","telefoon":"","CATEGORIE":"buiten categorie","LABEL":"ecovriendelijk","opmerkingen":"vegan tatoos"}},{"type":"Feature","geometry":{"type":"Point","coordinates":[3.7220316,51.047012]},"properties":{"NAAM":"Wasbar","STRAAT":"Nederkouter","NUMMER":"109","POSTCODE":"9000","BUS":"","GEMEENTE":"Gent","WEBADRES":"www.wasbar.be","telefoon":"0485\/423432","CATEGORIE":"eet-en-drankgelegenheden","LABEL":"ecovriendelijk","opmerkingen":"wasserette-caf__"}},{"type":"Feature","geometry":{"type":"Point","coordinates":[3.7213912,51.04976]},"properties":{"NAAM":"Gameswap","STRAAT":"Schouwburgstraat","NUMMER":"23","POSTCODE":"9000","BUS":"","GEMEENTE":"Gent","WEBADRES":"www.gameswap.be","telefoon":"09\/2331238","CATEGORIE":"buiten categorie","LABEL":"recuperatie en hergebruik","opmerkingen":"games"}},{"type":"Feature","geometry":{"type":"Point","coordinates":[3.7290702,51.064083]},"properties":{"NAAM":"SUBurban","STRAAT":"Sint-Salvatorstraat","NUMMER":"18","POSTCODE":"9000","BUS":"1","GEMEENTE":"Gent","WEBADRES":"www.suburban.be","telefoon":"09\/3298416","CATEGORIE":"kledij- en stoffenwinkels","LABEL":"fairtrade, bio","opmerkingen":""}},{"type":"Feature","geometry":{"type":"Point","coordinates":[3.7342455,51.05623]},"properties":{"NAAM":"Ecocentrum","STRAAT":"Rodetorenkaai","NUMMER":"6","POSTCODE":"9000","BUS":"","GEMEENTE":"Gent","WEBADRES":"","telefoon":"","CATEGORIE":"","LABEL":"sociaal, eco, info, bouwen, klussen","opmerkingen":""}},{"type":"Feature","geometry":{"type":"Point","coordinates":[3.7307808,51.057133]},"properties":{"NAAM":"Veggiehuis EVA ","STRAAT":"Steendam","NUMMER":"82","POSTCODE":"9000","BUS":"","GEMEENTE":"Gent","WEBADRES":"www.evavzw.be","telefoon":"09\/3296851","CATEGORIE":"infopunten","LABEL":"vegetarisch","opmerkingen":""}},{"type":"Feature","geometry":{"type":"Point","coordinates":[3.7121975,51.03687]},"properties":{"NAAM":"Milieuadvieswinkel GMF","STRAAT":"K. Maria Hendrikaplein","NUMMER":"5","POSTCODE":"9000","BUS":"104","GEMEENTE":"Gent","WEBADRES":"www.milieuadvieswinkel.be","telefoon":"09\/2428759","CATEGORIE":"infopunten","LABEL":"ecovriendelijk","opmerkingen":""}},{"type":"Feature","geometry":{"type":"Point","coordinates":[3.7011263,51.05907]},"properties":{"NAAM":"Regent","STRAAT":"Kastanjestraat","NUMMER":"2","POSTCODE":"9000","BUS":"","GEMEENTE":"Gent","WEBADRES":"www.vzwregent.be","telefoon":"09\/2187590","CATEGORIE":"infopunten","LABEL":"ecovriendelijk","opmerkingen":""}},{"type":"Feature","geometry":{"type":"Point","coordinates":[3.7221045,51.0463]},"properties":{"NAAM":"JNM","STRAAT":"Kortrijksepoortstraat","NUMMER":"192","POSTCODE":"9000","BUS":"","GEMEENTE":"Gent","WEBADRES":"ww.jnm.be\/gent","telefoon":"0484\/036547","CATEGORIE":"infopunten","LABEL":"ecovriendelijk","opmerkingen":""}},{"type":"Feature","geometry":{"type":"Point","coordinates":[3.7207785,51.059113]},"properties":{"NAAM":"Vredeshuis","STRAAT":"Sint-Margrietstraat","NUMMER":"9","POSTCODE":"9000","BUS":"","GEMEENTE":"Gent","WEBADRES":"www.gent.be","telefoon":"09\/2334295","CATEGORIE":"infopunten","LABEL":"fairtrade","opmerkingen":"hub voor solidair Gent"}},{"type":"Feature","geometry":{"type":"Point","coordinates":[3.73459,51.0568]},"properties":{"NAAM":"Kiddybips","STRAAT":"Dampoortstraat","NUMMER":"23","POSTCODE":"9000","BUS":"","GEMEENTE":"Gent","WEBADRES":"www.kiddybips.be","telefoon":"09\/2784647","CATEGORIE":"kledij- en stoffenwinkels","LABEL":"fairtrade, bio, ecovriendelijk","opmerkingen":""}},{"type":"Feature","geometry":{"type":"Point","coordinates":[3.7326648,51.048916]},"properties":{"NAAM":"New Hair Club","STRAAT":"Zuidstationstraat","NUMMER":"16","POSTCODE":"9000","BUS":"","GEMEENTE":"Gent","WEBADRES":"www.biokapper.be","telefoon":"09\/2331032","CATEGORIE":"Beauty","LABEL":"bio","opmerkingen":"kapsalon"}},{"type":"Feature","geometry":{"type":"Point","coordinates":[3.7199233,51.050896]},"properties":{"NAAM":"Printing shop Graphics","STRAAT":"Ajuinlei","NUMMER":"27","POSTCODE":"9000","BUS":"","GEMEENTE":"Gent","WEBADRES":"","telefoon":"","CATEGORIE":"copycenter ","LABEL":"ecovriendelijk","opmerkingen":"gerecycleerd papier zonder meerkost"}},{"type":"Feature","geometry":{"type":"Point","coordinates":[3.7173731,51.049965]},"properties":{"NAAM":"Top Copy","STRAAT":"Gebroeders Vandeveldestraat","NUMMER":"121","POSTCODE":"9000","BUS":"","GEMEENTE":"Gent","WEBADRES":"www.topcopy.be","telefoon":"09\/2234822","CATEGORIE":"copycenter ","LABEL":"ecovriendelijk","opmerkingen":"gerecycleerd papier zonder meerkost"}},{"type":"Feature","geometry":{"type":"Point","coordinates":[3.726317,51.044075]},"properties":{"NAAM":"Top Copy","STRAAT":"Sint-Pietersnieuwstraat","NUMMER":"113","POSTCODE":"9000","BUS":"","GEMEENTE":"Gent","WEBADRES":"","telefoon":"","CATEGORIE":"copycenter ","LABEL":"ecovriendelijk","opmerkingen":"gerecycleerd papier zonder meerkost"}},{"type":"Feature","geometry":{"type":"Point","coordinates":[3.7260108,51.043484]},"properties":{"NAAM":"Copyland","STRAAT":"Sint-Pietersplein","NUMMER":"","POSTCODE":"9000","BUS":"","GEMEENTE":"Gent","WEBADRES":"http:\/\/www.allps.be\/nl\/kopiezaak\/copyland-gent-allprintingservices","telefoon":"09\/2235900","CATEGORIE":"copycenter ","LABEL":"ecovriendelijk","opmerkingen":"gerecycleerd papier zonder meerkost"}},{"type":"Feature","geometry":{"type":"Point","coordinates":[3.732788,51.048866]},"properties":{"NAAM":"Best Copie","STRAAT":"Zuidstationstraat","NUMMER":"11","POSTCODE":"9000","BUS":"","GEMEENTE":"Gent","WEBADRES":"www.bestcopie.be","telefoon":"09\/2338338","CATEGORIE":"copycenter ","LABEL":"ecovriendelijk","opmerkingen":"gerecycleerd papier zonder meerkost"}},{"type":"Feature","geometry":{"type":"Point","coordinates":[3.7210863,51.043648]},"properties":{"NAAM":"Copy Discount","STRAAT":"Kortrijksepoortstraat","NUMMER":"216","POSTCODE":"9000","BUS":"","GEMEENTE":"Gent","WEBADRES":"www.copydiscount.be","telefoon":"09\/2243206","CATEGORIE":"copycenter ","LABEL":"ecovriendelijk","opmerkingen":"gerecycleerd papier zonder meerkost"}},{"type":"Feature","geometry":{"type":"Point","coordinates":[3.74793,51.060844]},"properties":{"NAAM":"Cliplijn","STRAAT":"Antwerpsesteenweg","NUMMER":"215","POSTCODE":"9040","BUS":"","GEMEENTE":"Gent","WEBADRES":"www.cliplijn.be","telefoon":"09\/2287558","CATEGORIE":"copycenter ","LABEL":"ecovriendelijk","opmerkingen":"gerecycleerd papier zonder meerkost"}},{"type":"Feature","geometry":{"type":"Point","coordinates":[3.7321532,51.049683]},"properties":{"NAAM":"Marmod","STRAAT":"Brabantdam","NUMMER":"136","POSTCODE":"9000","BUS":"","GEMEENTE":"Gent","WEBADRES":"http:\/\/www.marmod.be\/","telefoon":"0494\/629191","CATEGORIE":"tweedehandskledij","LABEL":"hergebruik","opmerkingen":"inclusief Fair Drinks"}},{"type":"Feature","geometry":{"type":"Point","coordinates":[3.7400174,51.05039]},"properties":{"NAAM":"Vedge","STRAAT":"Ossenstraat ","NUMMER":"102","POSTCODE":"9000","BUS":"","GEMEENTE":"Gent","WEBADRES":"www.vedge.be","telefoon":"","CATEGORIE":"eet-en-drankgelegenheden","LABEL":"vegetarisch","opmerkingen":"Veggie concept store"}},{"type":"Feature","geometry":{"type":"Point","coordinates":[3.7536242,51.04041]},"properties":{"NAAM":"De Zuidkant","STRAAT":"Frederik Burvenichstraat","NUMMER":"156","POSTCODE":"9050","BUS":"","GEMEENTE":"Gent","WEBADRES":"www.dezuidkant.be","telefoon":"09\/2237235","CATEGORIE":"eet-en-drankgelegenheden","LABEL":"vegetarisch","opmerkingen":""}},{"type":"Feature","geometry":{"type":"Point","coordinates":[3.7453446,51.037617]},"properties":{"NAAM":"Fietskeuken Ledeberg","STRAAT":"Hoveniersstraat","NUMMER":"40","POSTCODE":"9050","BUS":"","GEMEENTE":"Gent","WEBADRES":"http:\/\/fietskeuken.org\/fk\/ledeberg","telefoon":"","CATEGORIE":"buiten categorie","LABEL":"duurzame mobiliteit","opmerkingen":"fietsen herstellen"}},{"type":"Feature","geometry":{"type":"Point","coordinates":[3.7238505,51.053604]},"properties":{"NAAM":"Max Mobiel","STRAAT":"emile Braunplein","NUMMER":"","POSTCODE":"9000","BUS":"","GEMEENTE":"Gent","WEBADRES":"www.max-mobiel.be","telefoon":"0490\/452713","CATEGORIE":"buiten categorie","LABEL":"duurzame mobiliteit","opmerkingen":"fietspunt, fietsverhuur, fietsherstel"}},{"type":"Feature","geometry":{"type":"Point","coordinates":[3.7052195,51.065266]},"properties":{"NAAM":"Poezenboot","STRAAT":"Nieuwevaart","NUMMER":"254","POSTCODE":"9000","BUS":"","GEMEENTE":"Gent","WEBADRES":"http:\/\/www.poezenboot-gent.be\/","telefoon":"09\/2361907","CATEGORIE":"dieren","LABEL":"ecovriendelijk","opmerkingen":""}},{"type":"Feature","geometry":{"type":"Point","coordinates":[3.7410314,51.037888]},"properties":{"NAAM":"Qorn'r","STRAAT":"Landjuweelstraat","NUMMER":"23","POSTCODE":"9050","BUS":"","GEMEENTE":"Gent","WEBADRES":"https:\/\/www.facebook.com\/veggieqornr","telefoon":"0499\/610657","CATEGORIE":"eet-en-drankgelegenheden","LABEL":"vegetarisch, bio","opmerkingen":""}},{"type":"Feature","geometry":{"type":"Point","coordinates":[3.7281811,51.06452]},"properties":{"NAAM":"Hota","STRAAT":"Meerhem","NUMMER":"149","POSTCODE":"9000","BUS":"b","GEMEENTE":"Gent","WEBADRES":"www.hota.be","telefoon":"0496\/151090","CATEGORIE":"duurzaam bouwen","LABEL":"ecovriendelijk","opmerkingen":""}},{"type":"Feature","geometry":{"type":"Point","coordinates":[3.6993341,51.060028]},"properties":{"NAAM":"Volkskeuken AC","STRAAT":"Sparrestraat","NUMMER":"1","POSTCODE":"9000","BUS":"a","GEMEENTE":"Gent","WEBADRES":"http:\/\/www.anarchie.be\/AC\/","telefoon":"","CATEGORIE":"eet-en-drankgelegenheden","LABEL":"vegetarisch","opmerkingen":"elke woensdagavond"}},{"type":"Feature","geometry":{"type":"Point","coordinates":[3.7569463,51.02824]},"properties":{"NAAM":"Volkskeuken LedeBrugge","STRAAT":"Saint-Genoisstraat","NUMMER":"101","POSTCODE":"9050","BUS":"","GEMEENTE":"Gent","WEBADRES":"https:\/\/www.facebook.com\/pages\/Volkskeuken-LedeBrugge\/461123927276760","telefoon":"","CATEGORIE":"eet-en-drankgelegenheden","LABEL":"vegetarisch, bio","opmerkingen":"op inschrijving"}},{"type":"Feature","geometry":{"type":"Point","coordinates":[3.7421162,51.03023]},"properties":{"NAAM":"Volkskeuken tlandhuis","STRAAT":"Warmoezeniersweg","NUMMER":"10","POSTCODE":"9000","BUS":"","GEMEENTE":"Gent","WEBADRES":"http:\/\/tlandhuis.wordpress.com\/","telefoon":"","CATEGORIE":"eet-en-drankgelegenheden","LABEL":"vegetarisch","opmerkingen":"1e en 3e zondagavond"}},{"type":"Feature","geometry":{"type":"Point","coordinates":[3.7176461,51.054188]},"properties":{"NAAM":"Hostel Uppelink","STRAAT":"Sint-Michielsplein","NUMMER":"21","POSTCODE":"9000","BUS":"","GEMEENTE":"Gent","WEBADRES":"www.hosteluppelink.com","telefoon":"09\/2794477","CATEGORIE":"Bed & Breakfast","LABEL":"fairtrade, bio","opmerkingen":""}},{"type":"Feature","geometry":{"type":"Point","coordinates":[3.7397404,51.058098]},"properties":{"NAAM":"Le Petit Botanique","STRAAT":"koopvaardijlaan","NUMMER":"13","POSTCODE":"9000","BUS":"","GEMEENTE":"Gent","WEBADRES":"http:\/\/www.lepetitbotanique.be\/","telefoon":"09\/2323532","CATEGORIE":"eet-en-drankgelegenheden","LABEL":"korte keten, sociale tewerkstelling","opmerkingen":""}},{"type":"Feature","geometry":{"type":"Point","coordinates":[3.7291825,51.05955]},"properties":{"NAAM":"museumcaf\u00e9 MIAT","STRAAT":"Minnemeers","NUMMER":"9","POSTCODE":"9000","BUS":"","GEMEENTE":"Gent","WEBADRES":"www.miat.gent.be","telefoon":"09\/2330739","CATEGORIE":"eet-en-drankgelegenheden","LABEL":"fairtrade","opmerkingen":""}},{"type":"Feature","geometry":{"type":"Point","coordinates":[3.7536242,51.04041]},"properties":{"NAAM":"Foodstorms","STRAAT":"Frederik Burvenichstraat","NUMMER":"156","POSTCODE":"9050","BUS":"","GEMEENTE":"Gent","WEBADRES":"www.foodstorms.be","telefoon":"","CATEGORIE":"eet-en-drankgelegenheden","LABEL":"vegetarisch","opmerkingen":"pop-up vege gastronomie"}}],"bbox":[3.6615262,51.020218,3.7683473,51.133656]});